City_ID,City,Lat,Lng,Max Temp,Current Description,Rain inches (last 3 hrs),Snow inches (last 3 hrs),Humidity,Cloudiness,Wind Speed,Country,Date
0,Santiago De Chuco,-8.15,-78.18,49.73,broken clouds,0.0,0.0,36,76,1.21,PE,2020-04-24 03:08:36
1,Cape Town,-33.93,18.42,62.01,overcast clouds,0.0,0.0,87,99,4.7,ZA,2020-04-24 03:12:11
2,Galich,58.38,42.35,25.99,scattered clouds,0.0,0.0,90,44,6.02,RU,2020-04-24 03:12:21
3,Lorengau,-2.02,147.27,84.87,light rain,1.19,0.0,72,29,5.75,PG,2020-04-24 03:12:21
4,Hilo,19.73,-155.09,80.6,scattered clouds,0.0,0.0,57,40,9.17,US,2020-04-24 03:12:22
5,Sabinopolis,-18.67,-43.08,61.81,scattered clouds,0.0,0.0,77,26,1.48,BR,2020-04-24 03:12:22
6,Pudozh,61.81,36.53,26.31,broken clouds,0.0,0.0,95,54,3.71,RU,2020-04-24 03:12:23
7,Castro,-24.79,-50.01,53.15,clear sky,0.0,0.0,72,2,4.54,BR,2020-04-24 03:09:52
8,Sitka,57.05,-135.33,46.4,overcast clouds,0.0,0.0,75,90,9.17,US,2020-04-24 03:09:39
9,Gelemso,8.82,40.52,61.83,light rain,0.18,0.0,51,100,1.14,ET,2020-04-24 03:12:24
10,Rawlins,41.79,-107.24,42.01,light rain,0.0,0.0,65,75,9.17,US,2020-04-24 03:12:24
11,Bethel,41.37,-73.41,44.01,overcast clouds,0.0,0.0,48,90,3.36,US,2020-04-24 03:12:24
12,Leningradskiy,69.38,178.42,23.32,clear sky,0.0,0.0,93,0,4.5,RU,2020-04-24 03:12:25
13,Puerto Cabezas,14.04,-83.39,77.94,overcast clouds,0.0,0.0,86,90,6.42,NI,2020-04-24 03:12:25
14,Bluff,-46.6,168.33,60.01,overcast clouds,0.0,0.0,63,90,8.99,NZ,2020-04-24 03:12:25
15,Ponta Do Sol,32.67,-17.1,60.8,few clouds,0.0,0.0,63,20,9.17,PT,2020-04-24 03:12:25
16,Tuburan,6.64,122.27,84.2,scattered clouds,0.0,0.0,83,40,3.36,PH,2020-04-24 03:12:26
17,Jalu,29.03,21.55,63.09,clear sky,0.0,0.0,79,0,21.9,LY,2020-04-24 03:12:26
18,Ushuaia,-54.8,-68.3,39.2,scattered clouds,0.0,0.0,80,40,27.51,AR,2020-04-24 03:08:44
19,Otane,-39.88,176.63,66.0,clear sky,0.0,0.0,62,10,5.99,NZ,2020-04-24 03:12:26
20,Chuy,-33.7,-53.46,65.21,scattered clouds,0.0,0.0,91,36,11.7,UY,2020-04-24 03:12:27
21,Busselton,-33.65,115.33,69.01,light rain,0.23,0.0,52,26,12.44,AU,2020-04-24 03:12:27
22,Salinopolis,-0.61,-47.36,79.14,light rain,2.52,0.0,82,98,2.28,BR,2020-04-24 03:12:27
23,Vardo,70.37,31.11,26.6,shower rain,0.0,0.0,73,75,13.87,NO,2020-04-24 03:10:19
24,Vaini,-21.2,-175.2,80.6,broken clouds,0.0,0.0,88,75,10.29,TO,2020-04-24 03:12:28
25,Peniche,39.36,-9.38,57.0,overcast clouds,0.0,0.0,88,95,5.99,PT,2020-04-24 03:12:28
26,Lagoa,39.05,-27.98,59.49,overcast clouds,0.0,0.0,82,100,7.2,PT,2020-04-24 03:12:28
27,Krasnoselkup,65.7,82.47,41.95,overcast clouds,0.0,0.0,81,99,17.58,RU,2020-04-24 03:12:28
28,Hamilton,39.18,-84.53,55.0,overcast clouds,0.0,0.0,93,90,5.57,US,2020-04-24 03:12:29
29,Bambous Virieux,-20.34,57.76,75.99,light rain,0.27,0.0,89,37,7.0,MU,2020-04-24 03:11:01
30,Arraial Do Cabo,-22.97,-42.03,74.1,few clouds,0.0,0.0,68,14,6.6,BR,2020-04-24 03:12:29
31,Touros,-5.2,-35.46,77.0,scattered clouds,0.0,0.0,94,40,3.36,BR,2020-04-24 03:12:29
32,Rikitea,-23.12,-134.97,76.01,few clouds,0.0,0.0,77,24,12.17,PF,2020-04-24 03:12:29
33,Souillac,-20.52,57.52,75.99,light rain,0.41,0.0,89,66,7.0,MU,2020-04-24 03:12:30
34,Cidreira,-30.18,-50.21,68.59,clear sky,0.0,0.0,83,0,16.24,BR,2020-04-24 03:12:30
35,Hobart,-42.88,147.33,63.0,broken clouds,0.0,0.0,42,75,17.22,AU,2020-04-24 03:09:35
36,Kuusamo,65.97,29.18,19.4,clear sky,0.0,0.0,67,5,6.93,FI,2020-04-24 03:12:30
37,Dikson,73.51,80.55,34.0,overcast clouds,0.0,0.0,92,100,19.86,RU,2020-04-24 03:12:30
38,Upernavik,72.79,-56.15,24.8,clear sky,0.0,0.0,97,3,7.78,GL,2020-04-24 03:09:33
39,Thompson,55.74,-97.86,37.4,overcast clouds,0.0,0.0,74,90,4.7,CA,2020-04-24 03:09:45
40,Cherskiy,68.75,161.3,31.98,overcast clouds,0.0,0.0,97,100,6.6,RU,2020-04-24 03:12:31
41,Port Alfred,-33.59,26.89,63.0,overcast clouds,0.0,0.0,95,100,1.99,ZA,2020-04-24 03:12:31
42,Baruun-Urt,46.68,113.28,48.88,broken clouds,0.0,0.0,29,61,24.34,MN,2020-04-24 03:12:31
43,Kharp,66.8,65.81,19.35,overcast clouds,0.0,0.0,93,100,9.51,RU,2020-04-24 03:12:32
44,Floro,61.6,5.03,44.6,broken clouds,0.0,0.0,70,55,14.99,NO,2020-04-24 03:12:32
45,Port Elizabeth,-33.92,25.57,59.0,broken clouds,0.0,0.0,93,75,2.24,ZA,2020-04-24 03:12:32
46,Fukue,32.69,128.84,55.4,few clouds,0.0,0.0,47,20,14.99,JP,2020-04-24 03:12:32
47,Punta Arenas,-53.15,-70.92,37.4,scattered clouds,0.0,0.0,69,40,8.05,CL,2020-04-24 03:11:19
48,Jamestown,42.1,-79.24,50.0,scattered clouds,0.0,0.0,61,40,4.7,US,2020-04-24 03:12:33
49,Kodiak,57.79,-152.41,42.8,moderate rain,0.0,0.0,87,90,13.87,US,2020-04-24 03:12:33
50,New Norfolk,-42.78,147.06,63.0,overcast clouds,0.0,0.0,66,99,8.99,AU,2020-04-24 03:10:17
51,Hithadhoo,-0.6,73.08,84.11,overcast clouds,0.0,0.0,73,100,8.61,MV,2020-04-24 03:12:34
52,Qaanaaq,77.48,-69.36,10.99,broken clouds,0.0,0.0,90,58,3.18,GL,2020-04-24 03:12:34
53,Makali,8.63,-11.67,69.96,moderate rain,3.08,0.0,88,100,4.97,SL,2020-04-24 03:12:34
54,Yarmouth,41.71,-70.23,46.4,overcast clouds,0.0,0.0,65,90,9.17,US,2020-04-24 03:12:35
55,Khani,41.96,42.96,44.6,broken clouds,0.0,0.0,100,75,2.24,GE,2020-04-24 03:12:35
56,Florida,28.75,-82.5,79.0,broken clouds,0.0,0.0,78,75,11.23,US,2020-04-24 03:12:35
57,Atar,20.52,-13.05,65.89,clear sky,0.0,0.0,36,0,5.84,MR,2020-04-24 03:12:35
58,Geraldton,-28.77,114.6,73.4,scattered clouds,0.0,0.0,56,40,16.11,AU,2020-04-24 03:12:36
59,Oudtshoorn,-33.59,22.2,59.0,few clouds,0.0,0.0,93,20,2.24,ZA,2020-04-24 03:12:36
60,Constitucion,-35.33,-72.42,57.42,moderate rain,5.02,0.0,83,100,18.14,CL,2020-04-24 03:12:36
61,Pingliang,35.54,106.69,56.59,clear sky,0.0,0.0,17,0,0.76,CN,2020-04-24 03:12:37
62,Naze,28.37,129.48,64.4,broken clouds,0.0,0.0,48,75,11.41,JP,2020-04-24 03:12:37
63,Nikolskoye,59.7,30.79,35.6,overcast clouds,0.0,0.0,80,100,4.47,RU,2020-04-24 03:12:37
64,Narsaq,60.92,-46.05,35.6,overcast clouds,0.0,0.0,80,98,1.12,GL,2020-04-24 03:12:37
65,Santa Maria,-29.68,-53.81,65.66,clear sky,0.0,0.0,64,1,6.53,BR,2020-04-24 03:12:38
66,Hermanus,-34.42,19.23,60.01,broken clouds,0.0,0.0,81,78,9.53,ZA,2020-04-24 03:12:20
67,Serik,36.92,31.1,60.8,broken clouds,0.0,0.0,82,75,1.12,TR,2020-04-24 03:12:39
68,San Policarpo,12.18,125.51,83.71,light rain,0.16,0.0,75,100,10.54,PH,2020-04-24 03:12:39
69,Barreiras,-12.15,-44.99,70.48,overcast clouds,0.0,0.0,79,97,1.54,BR,2020-04-24 03:12:40
70,Korla,41.76,86.15,68.16,clear sky,0.0,0.0,14,0,7.54,CN,2020-04-24 03:12:40
71,Georgetown,5.41,100.34,86.0,few clouds,0.0,0.0,78,20,4.7,MY,2020-04-24 03:12:40
72,Yellowknife,62.46,-114.35,26.6,broken clouds,0.0,0.0,63,75,5.82,CA,2020-04-24 03:07:55
73,Aklavik,68.22,-135.01,5.0,scattered clouds,0.0,0.0,54,40,10.29,CA,2020-04-24 03:12:41
74,Sao Filipe,14.9,-24.5,70.38,overcast clouds,0.0,0.0,75,96,16.08,CV,2020-04-24 03:10:09
75,Atuona,-9.8,-139.03,82.09,clear sky,0.0,0.0,69,0,13.13,PF,2020-04-24 03:12:41
76,Port Macquarie,-31.43,152.92,80.01,clear sky,0.0,0.0,42,0,3.0,AU,2020-04-24 03:12:41
77,Saint-Pierre,-21.34,55.48,73.4,few clouds,0.0,0.0,78,20,5.82,RE,2020-04-24 03:12:42
78,Ponta Delgada,37.73,-25.67,60.8,few clouds,0.0,0.0,77,20,6.93,PT,2020-04-24 03:12:42
79,Znamenskoye,57.13,73.83,47.66,overcast clouds,0.0,0.0,52,99,10.31,RU,2020-04-24 03:12:42
80,Faanui,-16.48,-151.75,80.74,clear sky,0.0,0.0,70,8,16.15,PF,2020-04-24 03:10:18
81,Ngunguru,-35.62,174.5,70.0,clear sky,0.0,0.0,61,4,10.0,NZ,2020-04-24 03:12:43
82,Ribeira Grande,38.52,-28.7,59.74,overcast clouds,0.0,0.0,76,94,6.02,PT,2020-04-24 03:12:43
83,Vila Velha,-20.33,-40.29,72.0,clear sky,0.0,0.0,94,1,3.36,BR,2020-04-24 03:12:43
84,Cabo San Lucas,22.89,-109.91,77.0,clear sky,0.0,0.0,36,5,11.41,MX,2020-04-24 03:08:16
85,Nurota,40.56,65.69,68.0,overcast clouds,0.0,0.0,60,100,6.93,UZ,2020-04-24 03:12:46
86,Kavieng,-2.57,150.8,84.34,light rain,1.0,0.0,68,58,2.91,PG,2020-04-24 03:12:46
87,Grado,43.39,-6.07,57.2,overcast clouds,0.0,0.0,93,90,1.12,ES,2020-04-24 03:12:46
88,Avarua,-21.21,-159.78,82.4,broken clouds,0.0,0.0,74,75,8.05,CK,2020-04-24 03:09:51
89,Waipawa,-41.41,175.52,66.2,clear sky,0.0,0.0,55,0,12.75,NZ,2020-04-24 03:12:48
90,Yubari,43.04,141.96,50.0,broken clouds,0.0,0.0,45,75,17.22,JP,2020-04-24 03:12:48
91,Tongliao,43.61,122.27,58.06,overcast clouds,0.0,0.0,31,97,14.54,CN,2020-04-24 03:12:48
92,Pochutla,15.74,-96.47,80.74,clear sky,0.0,0.0,66,6,8.68,MX,2020-04-24 03:12:48
93,Albany,42.6,-73.97,44.6,broken clouds,0.0,0.0,45,75,6.93,US,2020-04-24 03:12:48
94,Mataura,-46.19,168.86,60.01,broken clouds,0.0,0.0,63,73,8.99,NZ,2020-04-24 03:12:49
95,Saint-Philippe,-21.36,55.77,73.4,few clouds,0.0,0.0,78,20,5.82,RE,2020-04-24 03:12:49
96,Tortel,47.12,19.94,41.0,few clouds,0.0,0.0,86,11,2.13,HU,2020-04-24 03:12:49
97,Gamba,-2.65,10.0,78.15,overcast clouds,0.0,0.0,90,88,3.29,GA,2020-04-24 03:12:49
98,Codrington,-38.27,141.97,60.42,overcast clouds,0.0,0.0,69,93,14.45,AU,2020-04-24 03:10:56
99,Kudahuvadhoo,2.67,72.89,82.89,moderate rain,3.36,0.0,71,100,1.03,MV,2020-04-24 03:12:50
100,Sechura,-5.56,-80.82,71.37,clear sky,0.0,0.0,75,0,11.83,PE,2020-04-24 03:12:50
101,Puerto Ayora,-0.74,-90.35,79.0,overcast clouds,0.0,0.0,84,94,5.01,EC,2020-04-24 03:12:50
102,Talpa,28.83,-111.63,82.99,clear sky,0.0,0.0,22,0,3.0,MX,2020-04-24 03:12:51
103,Kapaa,22.08,-159.32,80.6,scattered clouds,0.0,0.0,69,40,11.41,US,2020-04-24 03:12:51
104,Lata,40.16,-8.33,55.99,overcast clouds,0.0,0.0,94,90,2.73,PT,2020-04-24 03:12:51
105,Ambulu,-8.35,113.61,85.35,overcast clouds,0.0,0.0,63,100,4.76,ID,2020-04-24 03:12:51
106,Klaksvik,62.23,-6.59,39.2,overcast clouds,0.0,0.0,93,100,1.12,FO,2020-04-24 03:12:51
107,Tecoanapa,16.52,-98.75,77.63,few clouds,0.0,0.0,81,24,7.31,MX,2020-04-24 03:12:52
108,Kulhudhuffushi,6.62,73.07,85.39,overcast clouds,0.0,0.0,72,99,7.92,MV,2020-04-24 03:12:52
109,Hofn,64.25,-15.21,38.95,overcast clouds,0.0,0.0,76,99,1.57,IS,2020-04-24 03:12:52
110,Torfyanoy,58.49,49.2,26.78,overcast clouds,0.0,0.0,92,100,7.05,RU,2020-04-24 03:12:52
111,Vanimo,-2.67,141.3,84.07,light rain,2.78,0.0,72,97,1.01,PG,2020-04-24 03:12:53
112,Kaniama,-7.57,24.18,63.3,broken clouds,0.0,0.0,70,73,3.53,CD,2020-04-24 03:12:53
113,Aguas Formosas,-17.08,-40.94,65.55,overcast clouds,0.0,0.0,85,97,0.92,BR,2020-04-24 03:12:53
114,Talavera De La Reina,39.96,-4.83,55.54,overcast clouds,0.0,0.0,67,100,6.62,ES,2020-04-24 03:08:57
115,Salalah,17.02,54.09,82.4,few clouds,0.0,0.0,83,20,3.36,OM,2020-04-24 03:12:54
116,Barrow,71.29,-156.79,21.2,overcast clouds,0.0,0.0,92,90,4.7,US,2020-04-24 03:12:55
117,Olga,43.74,135.29,42.87,overcast clouds,0.0,0.0,63,99,8.03,RU,2020-04-24 03:12:56
118,Hami,42.8,93.45,68.07,clear sky,0.0,0.0,11,0,7.07,CN,2020-04-24 03:10:59
119,Flinders,-34.58,150.86,82.0,clear sky,0.0,0.0,42,0,1.99,AU,2020-04-24 03:11:37
120,Isangel,-19.55,169.27,80.6,broken clouds,0.0,0.0,78,75,6.93,VU,2020-04-24 03:10:13
121,Kargasok,59.06,80.86,52.0,overcast clouds,0.0,0.0,46,100,17.13,RU,2020-04-24 03:13:03
122,Athabasca,54.72,-113.29,44.89,light rain,0.72,0.0,62,77,3.71,CA,2020-04-24 03:12:05
123,Tuktoyaktuk,69.45,-133.04,-0.4,few clouds,0.0,0.0,70,20,9.17,CA,2020-04-24 03:13:04
124,Scottsbluff,41.87,-103.67,50.0,light rain,0.0,0.0,81,90,4.7,US,2020-04-24 03:13:04
125,Te Anau,-45.42,167.72,53.96,overcast clouds,0.0,0.0,60,98,8.72,NZ,2020-04-24 03:10:43
126,Maciel,-32.46,-60.89,77.0,overcast clouds,0.0,0.0,64,100,9.17,AR,2020-04-24 03:13:05
127,Bonavista,48.65,-53.11,32.0,scattered clouds,0.0,0.0,88,30,8.01,CA,2020-04-24 03:13:05
128,Laguna De Duero,41.58,-4.72,54.0,overcast clouds,0.0,0.0,93,94,5.82,ES,2020-04-24 03:13:05
129,Malia,35.28,25.47,57.0,broken clouds,0.0,0.0,87,75,13.87,GR,2020-04-24 03:13:05
130,Lavrentiya,65.58,-171.0,30.04,few clouds,0.0,0.0,94,14,8.59,RU,2020-04-24 03:13:06
131,College,64.86,-147.8,43.0,broken clouds,0.0,0.0,38,75,6.93,US,2020-04-24 03:13:06
132,Bredasdorp,-34.53,20.04,46.4,overcast clouds,0.0,0.0,93,96,2.86,ZA,2020-04-24 03:13:06
133,Matay,28.42,30.78,73.92,clear sky,0.0,0.0,20,3,14.2,EG,2020-04-24 03:13:07
134,Kaitangata,-46.28,169.85,57.63,overcast clouds,0.0,0.0,61,91,6.71,NZ,2020-04-24 03:13:07
135,Fairbanks,64.84,-147.72,43.0,clear sky,0.0,0.0,38,1,5.82,US,2020-04-24 03:13:07
136,Katete,-0.78,29.75,61.11,scattered clouds,0.0,0.0,63,32,3.18,UG,2020-04-24 03:13:07
137,Cascais,38.7,-9.42,57.0,broken clouds,0.0,0.0,87,66,9.17,PT,2020-04-24 03:13:08
138,Tasiilaq,65.61,-37.64,37.4,scattered clouds,0.0,0.0,95,28,2.24,GL,2020-04-24 03:09:38
139,Irbil,36.19,44.01,59.0,light rain,0.19,0.0,100,6,3.36,IQ,2020-04-24 03:13:08
140,Chicama,-7.84,-79.15,71.53,clear sky,0.0,0.0,67,10,5.19,PE,2020-04-24 03:13:08
141,Santa Marta,11.24,-74.2,81.0,scattered clouds,0.0,0.0,82,42,14.72,CO,2020-04-24 03:10:56
142,San Rafael,-34.62,-68.33,68.5,clear sky,0.0,0.0,41,0,4.16,AR,2020-04-24 03:08:42
143,Mar Del Plata,-38.0,-57.56,63.0,broken clouds,0.0,0.0,93,75,9.17,AR,2020-04-24 03:08:22
144,Sayville,40.74,-73.08,46.4,light rain,0.0,0.0,70,90,3.36,US,2020-04-24 03:13:09
145,Picsi,-6.72,-79.77,71.53,scattered clouds,0.0,0.0,68,31,7.58,PE,2020-04-24 03:13:10
146,Yudong,29.39,106.52,61.0,scattered clouds,0.0,0.0,76,40,2.24,CN,2020-04-24 03:13:10
147,Keti Bandar,24.14,67.45,83.52,few clouds,0.0,0.0,64,23,19.33,PK,2020-04-24 03:13:10
148,Lakatoro,-16.1,167.42,82.4,overcast clouds,0.0,0.0,74,90,11.79,VU,2020-04-24 03:13:10
149,Norman Wells,65.28,-126.83,17.6,overcast clouds,0.0,0.0,61,90,17.22,CA,2020-04-24 03:13:10
150,Coquimbo,-29.95,-71.34,62.6,overcast clouds,0.0,0.0,72,90,2.24,CL,2020-04-24 03:13:11
151,Mayna,54.11,47.62,26.91,light snow,0.0,0.32,93,53,5.14,RU,2020-04-24 03:13:11
152,Nanortalik,60.14,-45.24,37.89,overcast clouds,0.0,0.0,77,100,19.55,GL,2020-04-24 03:13:11
153,Hondo,32.45,130.2,59.0,few clouds,0.0,0.0,35,20,17.22,JP,2020-04-24 03:13:11
154,Saskylakh,71.92,114.08,25.92,overcast clouds,0.0,0.0,97,100,11.59,RU,2020-04-24 03:09:37
155,Kamaishi,39.27,141.88,48.2,light intensity shower rain,0.0,0.0,61,75,4.7,JP,2020-04-24 03:13:12
156,Rovaniemi,66.5,25.72,23.0,broken clouds,0.0,0.0,73,75,8.05,FI,2020-04-24 03:08:49
157,Plettenberg Bay,-34.05,23.37,60.85,overcast clouds,0.0,0.0,80,100,3.13,ZA,2020-04-24 03:13:12
158,Kendari,-3.94,122.5,81.32,light rain,2.28,0.0,85,100,2.59,ID,2020-04-24 03:13:13
159,Ornskoldsvik,63.29,18.72,37.4,clear sky,0.0,0.0,74,0,8.05,SE,2020-04-24 03:13:13
160,Arlit,18.74,7.39,87.49,clear sky,0.0,0.0,11,0,9.1,NE,2020-04-24 03:13:13
161,Saint George,37.1,-113.58,75.2,clear sky,0.0,0.0,25,1,5.82,US,2020-04-24 03:12:24
162,Katsuura,35.13,140.3,59.0,broken clouds,0.0,0.0,68,75,3.36,JP,2020-04-24 03:13:14
163,Miri,4.41,114.01,82.4,broken clouds,0.0,0.0,88,75,4.7,MY,2020-04-24 03:13:15
164,Lebu,-37.62,-73.65,55.4,light rain,2.24,0.0,88,100,15.05,CL,2020-04-24 03:13:15
165,Shelburne,44.08,-80.2,41.0,overcast clouds,0.0,0.0,27,90,8.05,CA,2020-04-24 03:13:15
166,Aqtobe,50.28,57.21,33.8,few clouds,0.0,0.0,86,11,8.95,KZ,2020-04-24 03:13:16
167,Longyearbyen,78.22,15.64,15.8,clear sky,0.0,0.0,61,0,3.36,SJ,2020-04-24 03:13:16
168,Fortuna Foothills,32.66,-114.41,93.2,clear sky,0.0,0.0,18,1,5.82,US,2020-04-24 03:13:16
169,Ancud,-41.87,-73.82,52.0,broken clouds,0.0,0.0,100,75,9.17,CL,2020-04-24 03:13:17
170,Yumen,40.28,97.2,55.8,clear sky,0.0,0.0,13,0,8.77,CN,2020-04-24 03:13:17
171,Port Blair,11.67,92.75,84.34,overcast clouds,0.0,0.0,71,100,6.15,IN,2020-04-24 03:13:17
172,Severo-Kurilsk,50.68,156.12,33.73,light snow,0.0,0.32,92,100,7.43,RU,2020-04-24 03:13:19
173,Manuk Mangkaw,4.8,119.85,84.76,light rain,1.1,0.0,70,60,3.09,PH,2020-04-24 03:13:19
174,Chumikan,54.72,135.31,33.08,light snow,0.0,0.42,92,100,3.44,RU,2020-04-24 03:13:20
175,San Carlos De Bariloche,-41.15,-71.31,50.0,broken clouds,0.0,0.0,71,75,14.99,AR,2020-04-24 03:13:20
176,Doka,13.52,35.77,74.1,broken clouds,0.0,0.0,16,62,1.72,SD,2020-04-24 03:13:21
177,Butaritari,3.07,172.79,83.7,light rain,2.36,0.0,76,100,15.52,KI,2020-04-24 03:13:21
178,Kamenka,51.32,42.77,39.0,broken clouds,0.0,0.0,59,75,1.01,RU,2020-04-24 03:13:21
179,San Pedro,14.35,121.02,93.99,scattered clouds,0.0,0.0,49,40,11.41,PH,2020-04-24 03:13:22
180,Saldanha,-33.01,17.94,62.6,overcast clouds,0.0,0.0,72,100,3.36,ZA,2020-04-24 03:13:23
181,Asau,46.43,26.4,42.01,scattered clouds,0.0,0.0,56,33,3.69,RO,2020-04-24 03:13:24
182,Saint-Georges,12.06,-61.75,77.0,few clouds,0.0,0.0,88,20,13.87,GD,2020-04-24 03:13:24
183,Padilla,3.22,-76.31,69.8,broken clouds,0.0,0.0,83,75,3.36,CO,2020-04-24 03:13:25
184,Yaan,7.38,8.57,78.89,overcast clouds,0.0,0.0,77,100,7.0,NG,2020-04-24 03:13:26
185,Vila,42.03,-8.16,51.01,broken clouds,0.0,0.0,91,61,1.61,PT,2020-04-24 03:13:26
186,Zyryanka,65.75,150.85,30.36,overcast clouds,0.0,0.0,99,100,4.54,RU,2020-04-24 03:13:26
187,Porto Belo,-27.16,-48.55,68.0,clear sky,0.0,0.0,79,5,4.92,BR,2020-04-24 03:13:27
188,Saint Anthony,45.02,-93.22,53.6,clear sky,0.0,0.0,54,1,4.7,US,2020-04-24 03:13:27
189,Marigot,18.07,-63.08,80.6,scattered clouds,0.0,0.0,69,40,12.75,MF,2020-04-24 03:13:27
190,Tiksi,71.69,128.87,23.09,overcast clouds,0.0,0.0,94,87,2.53,RU,2020-04-24 03:13:27
191,Namatanai,-3.67,152.43,80.26,light rain,2.25,0.0,80,97,9.95,PG,2020-04-24 03:13:28
192,Pandhana,21.7,76.22,90.5,clear sky,0.0,0.0,26,0,11.52,IN,2020-04-24 03:13:28
193,East London,-33.02,27.91,62.6,light rain,0.15,0.0,100,98,9.17,ZA,2020-04-24 03:13:29
194,Kuching,1.55,110.33,86.0,scattered clouds,0.0,0.0,79,40,4.7,MY,2020-04-24 03:11:02
195,Ilulissat,69.22,-51.1,28.4,clear sky,0.0,0.0,92,9,5.82,GL,2020-04-24 03:13:30
196,Arkansas City,37.06,-97.04,69.8,clear sky,0.0,0.0,59,1,6.93,US,2020-04-24 03:13:30
197,Plouzane,48.38,-4.62,53.6,overcast clouds,0.0,0.0,87,90,9.17,FR,2020-04-24 03:13:31
198,Khatanga,71.97,102.5,33.85,scattered clouds,0.0,0.0,90,47,16.26,RU,2020-04-24 03:10:08
199,Rocha,-34.48,-54.33,63.23,broken clouds,0.0,0.0,94,81,9.44,UY,2020-04-24 03:13:32
200,Gladstone,-23.85,151.25,82.4,scattered clouds,0.0,0.0,48,40,9.17,AU,2020-04-24 03:13:33
201,Torbay,47.67,-52.73,35.01,light shower snow,0.0,0.0,94,90,12.75,CA,2020-04-24 03:13:33
202,Cayenne,4.93,-52.33,78.8,overcast clouds,0.0,0.0,83,90,4.7,GF,2020-04-24 03:11:15
203,Massaguet,12.48,15.44,87.8,broken clouds,0.0,0.0,35,65,5.82,TD,2020-04-24 03:13:34
204,Wanning,18.8,110.4,76.44,light rain,1.13,0.0,85,100,15.46,CN,2020-04-24 03:13:34
205,Port Hardy,50.7,-127.42,51.8,broken clouds,0.0,0.0,81,75,5.82,CA,2020-04-24 03:13:35
206,Timmins,48.47,-81.33,26.6,scattered clouds,0.0,0.0,42,40,5.82,CA,2020-04-24 03:13:35
207,Belyy Yar,53.6,91.39,62.6,overcast clouds,0.0,0.0,26,98,2.24,RU,2020-04-24 03:13:35
208,Nouadhibou,20.93,-17.03,62.6,clear sky,0.0,0.0,88,0,11.41,MR,2020-04-24 03:13:36
209,Sakakah,29.97,40.21,62.6,clear sky,0.0,0.0,39,0,6.73,SA,2020-04-24 03:13:36
210,Chokurdakh,70.63,147.92,25.74,clear sky,0.0,0.0,96,0,7.96,RU,2020-04-24 03:09:35
211,Wukari,7.85,9.78,77.11,overcast clouds,0.0,0.0,78,100,2.21,NG,2020-04-24 03:13:37
212,Bowen,-20.02,148.23,84.99,broken clouds,0.0,0.0,54,75,12.75,AU,2020-04-24 03:13:37
213,Fare,-16.7,-151.02,81.82,scattered clouds,0.0,0.0,69,37,16.02,PF,2020-04-24 03:11:08
214,Mana,5.66,-53.78,76.23,broken clouds,0.0,0.0,86,72,7.7,GF,2020-04-24 03:13:37
215,Sao Felix Do Xingu,-6.64,-51.99,72.77,light rain,1.84,0.0,90,100,0.58,BR,2020-04-24 03:13:38
216,Santa Fe,-31.63,-60.7,75.0,overcast clouds,0.0,0.0,62,98,5.99,AR,2020-04-24 03:12:12
217,Victoria,22.29,114.16,68.0,scattered clouds,0.0,0.0,77,40,3.36,HK,2020-04-24 03:09:27
218,Kindu,-2.95,25.95,70.45,overcast clouds,0.0,0.0,83,91,2.35,CD,2020-04-24 03:13:38
219,Sioux Lookout,50.1,-91.92,42.8,scattered clouds,0.0,0.0,60,40,4.7,CA,2020-04-24 03:13:39
220,Calamar,10.25,-74.91,80.11,light rain,0.83,0.0,79,77,2.8,CO,2020-04-24 03:13:39
221,Olafsvik,64.89,-23.71,42.93,light rain,0.17,0.0,86,99,13.33,IS,2020-04-24 03:13:39
222,Ahipara,-35.17,173.17,66.25,clear sky,0.0,0.0,72,2,11.92,NZ,2020-04-24 03:13:39
223,Grindavik,63.84,-22.43,41.0,overcast clouds,0.0,0.0,93,90,14.99,IS,2020-04-24 03:13:40
224,Aromashevo,56.86,68.64,41.54,few clouds,0.0,0.0,62,22,13.94,RU,2020-04-24 03:13:40
225,Jining,35.41,116.58,67.51,clear sky,0.0,0.0,25,0,15.46,CN,2020-04-24 03:13:41
226,Inhambane,-23.86,35.38,72.59,clear sky,0.0,0.0,79,8,10.13,MZ,2020-04-24 03:13:41
227,Puerto Colombia,10.99,-74.95,82.4,overcast clouds,0.0,0.0,78,97,12.75,CO,2020-04-24 03:10:10
228,Kununurra,-15.77,128.73,98.6,few clouds,0.0,0.0,29,21,10.29,AU,2020-04-24 03:13:41
229,Chuguyevka,44.17,133.86,43.16,overcast clouds,0.0,0.0,57,100,6.13,RU,2020-04-24 03:13:41
230,Parabel,58.7,81.48,53.65,overcast clouds,0.0,0.0,44,100,15.52,RU,2020-04-24 03:13:42
231,Tromso,69.65,18.96,30.2,broken clouds,0.0,0.0,74,75,26.4,NO,2020-04-24 03:11:02
232,Matara,5.95,80.54,84.81,broken clouds,0.0,0.0,72,63,2.44,LK,2020-04-24 03:13:42
233,Tautira,-17.73,-149.15,87.8,few clouds,0.0,0.0,52,12,5.82,PF,2020-04-24 03:13:43
234,Vieste,41.88,16.18,50.0,clear sky,0.0,0.0,81,5,4.7,IT,2020-04-24 03:13:43
235,Chulman,56.85,124.91,37.06,few clouds,0.0,0.0,56,12,12.48,RU,2020-04-24 03:13:44
236,Ko Samui,9.54,99.94,80.6,few clouds,0.0,0.0,94,20,2.24,TH,2020-04-24 03:13:44
237,Erenhot,43.65,111.98,58.12,clear sky,0.0,0.0,21,0,27.83,CN,2020-04-24 03:13:45
238,Birnin Kebbi,12.45,4.2,88.88,overcast clouds,0.0,0.0,37,91,9.78,NG,2020-04-24 03:13:45
239,Beyneu,45.32,55.2,47.08,overcast clouds,0.0,0.0,54,98,11.18,KZ,2020-04-24 03:13:45
240,Esperance,-33.87,121.9,71.6,broken clouds,0.0,0.0,60,75,9.17,AU,2020-04-24 03:13:45
241,Anadyr,64.75,177.48,12.2,broken clouds,0.0,0.0,85,75,6.71,RU,2020-04-24 03:13:46
242,Qaqortoq,60.72,-46.03,35.6,overcast clouds,0.0,0.0,80,99,1.12,GL,2020-04-24 03:13:46
243,Gizo,-8.1,156.84,84.52,light rain,1.43,0.0,71,71,6.02,SB,2020-04-24 03:13:46
244,Temiscaming,46.72,-79.1,33.8,broken clouds,0.0,0.0,26,75,8.05,CA,2020-04-24 03:13:46
245,Iqaluit,63.75,-68.51,26.6,broken clouds,0.0,0.0,68,75,3.36,CA,2020-04-24 03:13:47
246,Marabba,12.35,32.18,77.11,scattered clouds,0.0,0.0,14,44,7.09,SD,2020-04-24 03:13:47
247,Lompoc,34.64,-120.46,64.4,clear sky,0.0,0.0,63,1,10.29,US,2020-04-24 03:09:44
248,Usinsk,65.99,57.53,22.1,overcast clouds,0.0,0.0,96,99,16.51,RU,2020-04-24 03:10:56
249,Yar-Sale,66.83,70.83,23.07,overcast clouds,0.0,0.0,93,100,18.34,RU,2020-04-24 03:10:00
250,Nantucket,41.28,-70.1,44.6,scattered clouds,0.0,0.0,69,40,10.29,US,2020-04-24 03:09:43
251,Nicoya,10.15,-85.45,73.0,light rain,0.43,0.0,84,99,7.0,CR,2020-04-24 03:13:49
252,Pervomayskoye,43.92,46.71,44.83,few clouds,0.0,0.0,63,19,4.45,RU,2020-04-24 03:13:49
253,Port Moresby,-9.44,147.18,86.0,haze,0.0,0.0,74,40,13.87,PG,2020-04-24 03:13:49
254,Richards Bay,-28.78,32.04,72.16,scattered clouds,0.0,0.0,79,43,4.38,ZA,2020-04-24 03:13:50
255,Denpasar,-8.65,115.22,86.0,few clouds,0.0,0.0,84,20,13.87,ID,2020-04-24 03:11:26
256,Panaba,21.28,-88.27,80.82,few clouds,0.0,0.0,69,13,12.35,MX,2020-04-24 03:13:50
257,Carnarvon,-24.87,113.63,78.8,clear sky,0.0,0.0,69,0,18.34,AU,2020-04-24 03:13:50
258,Hasaki,35.73,140.83,61.0,light intensity shower rain,0.0,0.0,58,75,10.29,JP,2020-04-24 03:13:50
259,Fort Nelson,58.81,-122.7,48.2,overcast clouds,0.0,0.0,57,90,10.29,CA,2020-04-24 03:13:51
260,Vysokaya Gora,55.91,49.3,26.6,clear sky,0.0,0.0,86,1,6.71,RU,2020-04-24 03:13:51
261,Sobolevo,54.43,31.9,41.04,overcast clouds,0.0,0.0,83,94,4.79,RU,2020-04-24 03:13:51
262,Manokwari,-0.87,134.08,84.94,light rain,0.18,0.0,69,63,2.1,ID,2020-04-24 03:13:52
263,Umm Lajj,25.02,37.27,72.93,clear sky,0.0,0.0,67,0,2.06,SA,2020-04-24 03:13:52
264,Nizhniy Kuranakh,58.84,125.49,39.65,light snow,0.0,0.15,65,91,4.0,RU,2020-04-24 03:13:52
265,Paamiut,61.99,-49.67,35.22,broken clouds,0.0,0.0,86,82,6.08,GL,2020-04-24 03:13:52
266,Victor Harbor,-35.57,138.62,68.0,few clouds,0.0,0.0,67,17,4.9,AU,2020-04-24 03:13:53
267,Bhag,29.04,67.82,91.18,clear sky,0.0,0.0,21,0,3.4,PK,2020-04-24 03:13:53
268,Esil,51.96,66.4,47.41,light rain,0.12,0.0,61,100,12.73,KZ,2020-04-24 03:13:54
269,Pune,18.52,73.86,84.78,clear sky,0.0,0.0,30,0,5.7,IN,2020-04-24 03:09:23
270,Pevek,69.7,170.31,25.66,clear sky,0.0,0.0,88,0,4.16,RU,2020-04-24 03:13:54
271,Kahului,20.89,-156.47,82.4,scattered clouds,0.0,0.0,51,40,17.22,US,2020-04-24 03:09:40
272,Nouakchott,18.09,-15.98,66.2,broken clouds,0.0,0.0,77,64,20.8,MR,2020-04-24 03:13:55
273,Slave Lake,55.28,-114.77,48.2,broken clouds,0.0,0.0,45,75,12.75,CA,2020-04-24 03:13:56
274,Grand Gaube,-20.01,57.66,75.99,moderate rain,0.0,0.0,89,14,7.0,MU,2020-04-24 03:10:03
275,Chimbote,-9.09,-78.58,68.41,clear sky,0.0,0.0,80,1,3.13,PE,2020-04-24 03:13:57
276,Bundu,23.18,85.58,73.4,haze,0.0,0.0,73,40,7.34,IN,2020-04-24 03:13:57
277,Singarayakonda,15.25,80.03,85.93,overcast clouds,0.0,0.0,64,90,11.97,IN,2020-04-24 03:13:57
278,Manono,-7.3,27.42,65.07,broken clouds,0.0,0.0,75,76,1.97,CD,2020-04-24 03:13:58
279,Beisfjord,68.38,17.6,33.8,light snow,0.0,0.87,86,100,21.92,NO,2020-04-24 03:13:59
280,Bhatkal,13.97,74.57,85.46,broken clouds,0.0,0.0,65,79,2.19,IN,2020-04-24 03:14:00
281,Airai,-8.93,125.41,71.58,overcast clouds,0.0,0.0,49,87,4.99,TL,2020-04-24 03:14:00
282,Antsohihy,-14.88,47.99,71.62,scattered clouds,0.0,0.0,87,25,3.29,MG,2020-04-24 03:14:00
283,Husavik,66.04,-17.34,35.6,scattered clouds,0.0,0.0,75,46,10.29,IS,2020-04-24 03:09:57
284,Port Lincoln,-34.73,135.87,66.58,few clouds,0.0,0.0,61,21,3.49,AU,2020-04-24 03:14:01
285,Kungurtug,50.6,97.52,60.04,broken clouds,0.0,0.0,18,74,2.19,RU,2020-04-24 03:14:01
286,Posadas,-27.37,-55.9,65.57,clear sky,0.0,0.0,57,0,4.99,AR,2020-04-24 03:14:01
287,Orhei,47.38,28.82,41.0,scattered clouds,0.0,0.0,52,25,8.05,MD,2020-04-24 03:14:02
288,Morondava,-20.28,44.28,74.46,clear sky,0.0,0.0,82,6,4.68,MG,2020-04-24 03:14:03
289,Tuatapere,-46.13,167.68,60.01,overcast clouds,0.0,0.0,63,90,8.99,NZ,2020-04-24 03:14:04
290,Ibipeba,-11.64,-42.01,67.82,clear sky,0.0,0.0,75,5,6.51,BR,2020-04-24 03:14:05
291,Mahabad,36.76,45.72,51.48,light rain,0.33,0.0,49,8,5.08,IR,2020-04-24 03:14:05
292,Yerbogachen,61.28,108.01,42.75,clear sky,0.0,0.0,57,1,3.36,RU,2020-04-24 03:14:06
293,Mitsamiouli,-11.38,43.28,82.18,light rain,1.51,0.0,70,17,2.95,KM,2020-04-24 03:14:07
294,Pauini,-7.71,-66.98,74.25,light rain,0.56,0.0,91,88,1.79,BR,2020-04-24 03:14:07
295,Davila,18.47,120.58,87.8,scattered clouds,0.0,0.0,70,40,17.22,PH,2020-04-24 03:14:08
296,Pasighat,28.07,95.33,71.29,overcast clouds,0.0,0.0,61,100,1.86,IN,2020-04-24 03:14:08
297,Ukiah,39.15,-123.21,68.0,clear sky,0.0,0.0,34,1,6.93,US,2020-04-24 03:12:08
298,Vila Franca Do Campo,37.72,-25.43,60.8,few clouds,0.0,0.0,77,20,6.93,PT,2020-04-24 03:14:09
299,Walvis Bay,-22.96,14.51,60.01,clear sky,0.0,0.0,87,1,4.7,NA,2020-04-24 03:14:09
300,Padang,-0.95,100.35,88.7,broken clouds,0.0,0.0,55,76,1.16,ID,2020-04-24 03:14:09
301,Dudinka,69.41,86.18,35.6,scattered clouds,0.0,0.0,100,40,13.42,RU,2020-04-24 03:14:10
302,Russell,32.35,-85.2,64.4,overcast clouds,0.0,0.0,93,90,8.05,US,2020-04-24 03:14:10
303,Boras,57.72,12.94,39.2,scattered clouds,0.0,0.0,86,37,1.88,SE,2020-04-24 03:14:12
304,Starodub,52.58,32.76,41.56,broken clouds,0.0,0.0,85,77,6.06,RU,2020-04-24 03:14:12
305,Chervone,49.96,28.86,42.17,few clouds,0.0,0.0,80,13,8.01,UA,2020-04-24 03:14:12
306,Diffa,13.32,12.61,82.96,clear sky,0.0,0.0,13,0,9.01,NE,2020-04-24 03:14:13
307,Imeni Poliny Osipenko,52.42,136.49,37.36,overcast clouds,0.0,0.0,68,100,18.59,RU,2020-04-24 03:14:13
308,Svobodnyy,51.4,128.13,41.5,clear sky,0.0,0.0,56,4,11.7,RU,2020-04-24 03:14:14
309,Itarema,-2.92,-39.92,77.0,light rain,2.21,0.0,87,90,3.44,BR,2020-04-24 03:14:14
310,Odweyne,9.41,45.06,72.75,light rain,0.35,0.0,55,16,6.87,SO,2020-04-24 03:14:15
311,Mankono,8.06,-6.19,74.61,moderate rain,3.05,0.0,84,100,3.24,CI,2020-04-24 03:14:15
312,High Prairie,55.43,-116.49,43.03,light rain,0.58,0.0,65,100,5.12,CA,2020-04-24 03:14:16
313,Ploemeur,47.73,-3.43,55.4,overcast clouds,0.0,0.0,82,90,2.24,FR,2020-04-24 03:14:16
314,Santa Cruz De La Palma,28.68,-17.76,62.6,broken clouds,0.0,0.0,77,75,11.41,ES,2020-04-24 03:14:17
315,Kasongo-Lunda,-6.47,16.82,71.02,overcast clouds,0.0,0.0,78,97,1.61,CD,2020-04-24 03:14:17
316,Kilis,36.72,37.12,46.4,scattered clouds,0.0,0.0,93,40,2.82,TR,2020-04-24 03:14:17
317,San Quintin,30.48,-115.95,68.23,clear sky,0.0,0.0,60,0,5.26,MX,2020-04-24 03:14:18
318,Najran,17.49,44.13,71.6,scattered clouds,0.0,0.0,60,37,1.86,SA,2020-04-24 03:14:18
319,Bardiyah,31.76,25.09,60.31,light rain,0.2,0.0,82,62,28.86,LY,2020-04-24 03:14:19
320,Porbandar,21.64,69.61,84.65,few clouds,0.0,0.0,64,18,12.97,IN,2020-04-24 03:14:19
321,Caconda,-13.73,15.07,53.26,clear sky,0.0,0.0,51,0,3.4,AO,2020-04-24 03:14:20
322,Kandrian,-6.22,149.55,82.81,moderate rain,8.74,0.0,83,100,8.59,PG,2020-04-24 03:14:20
323,Cuiaba,-15.6,-56.1,77.0,broken clouds,0.0,0.0,73,67,1.81,BR,2020-04-24 03:13:52
324,Puerto Rico,-26.8,-55.02,64.49,clear sky,0.0,0.0,59,0,2.71,AR,2020-04-24 03:14:21
325,Asfi,32.3,-9.24,62.49,light rain,0.66,0.0,83,68,5.57,MA,2020-04-24 03:14:21
326,San Patricio,19.22,-104.7,73.6,scattered clouds,0.0,0.0,70,47,1.77,MX,2020-04-24 03:09:50
327,Launceston,-41.45,147.17,60.01,broken clouds,0.0,0.0,67,75,20.8,AU,2020-04-24 03:14:21
328,Tianmen,30.65,113.16,70.63,broken clouds,0.0,0.0,42,74,6.71,CN,2020-04-24 03:14:22
329,Mackay,-21.15,149.2,82.99,clear sky,0.0,0.0,54,4,12.75,AU,2020-04-24 03:10:26
330,Muros,42.78,-9.06,48.99,scattered clouds,0.0,0.0,91,37,4.65,ES,2020-04-24 03:09:59
331,Kochubey,44.39,46.58,47.17,clear sky,0.0,0.0,55,2,5.48,RU,2020-04-24 03:14:22
332,Stephenville,32.22,-98.2,70.0,clear sky,0.0,0.0,49,1,6.93,US,2020-04-24 03:13:27
333,Hambantota,6.12,81.12,83.55,broken clouds,0.0,0.0,75,63,5.53,LK,2020-04-24 03:14:23
334,Warrington,53.39,-2.58,48.2,overcast clouds,0.0,0.0,81,91,8.05,GB,2020-04-24 03:14:23
335,Gat,31.61,34.76,61.0,few clouds,0.0,0.0,77,19,1.01,IL,2020-04-24 03:14:23
336,Catamarca,-28.47,-65.79,73.09,clear sky,0.0,0.0,45,4,6.31,AR,2020-04-24 03:12:50
337,Kalagarh,29.5,78.75,83.82,clear sky,0.0,0.0,26,0,3.96,IN,2020-04-24 03:14:24
338,Goderich,43.75,-81.72,43.0,overcast clouds,0.0,0.0,40,100,10.27,CA,2020-04-24 03:14:25
339,Tessalit,20.2,1.01,79.7,clear sky,0.0,0.0,14,3,11.5,ML,2020-04-24 03:14:25
340,Omboue,-1.57,9.26,78.28,overcast clouds,0.0,0.0,89,99,4.94,GA,2020-04-24 03:14:26
341,Kongwa,-6.2,36.42,64.17,light rain,0.3,0.0,71,98,1.3,TZ,2020-04-24 03:14:26
342,Sibolga,1.74,98.78,88.34,scattered clouds,0.0,0.0,60,48,1.7,ID,2020-04-24 03:14:27
343,Colesberg,-30.72,25.1,60.24,light rain,0.29,0.0,45,98,6.89,ZA,2020-04-24 03:14:27
344,Ossora,59.24,163.07,30.15,light snow,0.0,0.33,97,100,13.69,RU,2020-04-24 03:14:28
345,Puerto El Triunfo,13.28,-88.55,82.4,haze,0.0,0.0,83,20,1.12,SV,2020-04-24 03:14:29
346,Kangaatsiaq,68.31,-53.46,30.6,clear sky,0.0,0.0,96,7,6.55,GL,2020-04-24 03:14:29
347,Mount Gambier,-37.83,140.77,60.8,overcast clouds,0.0,0.0,72,90,12.75,AU,2020-04-24 03:10:01
348,Amapa,1.0,-52.0,71.13,overcast clouds,0.0,0.0,95,100,1.97,BR,2020-04-24 03:14:31
349,Pangnirtung,66.15,-65.71,23.02,overcast clouds,0.0,0.0,89,100,3.67,CA,2020-04-24 03:10:35
350,Santa Isabel Do Rio Negro,-0.41,-65.02,74.25,broken clouds,0.0,0.0,83,66,1.45,BR,2020-04-24 03:11:07
351,Luderitz,-26.65,15.16,71.6,overcast clouds,0.0,0.0,60,92,8.05,NA,2020-04-24 03:14:31
352,Rockport,28.02,-97.05,78.8,clear sky,0.0,0.0,65,1,11.41,US,2020-04-24 03:14:32
353,Alofi,-19.06,-169.92,87.8,scattered clouds,0.0,0.0,70,40,8.05,NU,2020-04-24 03:09:41
354,Burnie,-41.07,145.92,60.01,overcast clouds,0.0,0.0,62,100,15.99,AU,2020-04-24 03:14:32
355,Limulunga,-15.1,23.14,59.41,few clouds,0.0,0.0,54,18,4.94,ZM,2020-04-24 03:14:33
356,Englewood,39.65,-104.99,55.99,overcast clouds,0.0,0.0,29,90,14.99,US,2020-04-24 03:14:33
357,Kilinochchi,9.4,80.4,86.2,overcast clouds,0.0,0.0,64,93,7.07,LK,2020-04-24 03:14:34
358,Buraydah,26.33,43.98,68.0,clear sky,0.0,0.0,68,0,3.36,SA,2020-04-24 03:14:34
359,Balakhta,55.38,91.6,66.76,overcast clouds,0.0,0.0,37,100,5.95,RU,2020-04-24 03:14:35
360,Caraballeda,10.61,-66.85,70.0,few clouds,0.0,0.0,57,13,6.29,VE,2020-04-24 03:14:36
361,Ajdabiya,30.76,20.23,62.83,clear sky,0.0,0.0,77,1,17.56,LY,2020-04-24 03:14:36
362,Uchiza,-8.46,-76.46,71.26,light rain,0.28,0.0,68,98,3.67,PE,2020-04-24 03:14:37
363,Batagay-Alyta,67.8,130.41,28.09,overcast clouds,0.0,0.0,86,95,4.5,RU,2020-04-24 03:14:37
364,Vestmannaeyjar,63.44,-20.27,45.01,scattered clouds,0.0,0.0,89,33,22.21,IS,2020-04-24 03:10:36
365,Maraa,-1.83,-65.37,74.55,broken clouds,0.0,0.0,90,64,1.7,BR,2020-04-24 03:10:34
366,Berlevag,70.86,29.09,28.51,light snow,0.0,0.49,95,100,30.02,NO,2020-04-24 03:14:38
367,Ulladulla,-35.35,150.47,79.0,clear sky,0.0,0.0,31,0,6.93,AU,2020-04-24 03:14:38
368,Tura,25.52,90.22,69.84,light rain,2.67,0.0,74,100,1.99,IN,2020-04-24 03:14:39
369,Salym,60.06,71.48,34.39,snow,0.0,2.66,90,100,3.53,RU,2020-04-24 03:14:39
370,Boyolangu,-8.12,111.89,85.53,overcast clouds,0.0,0.0,67,95,4.76,ID,2020-04-24 03:14:40
371,Auki,-8.77,160.7,83.17,light rain,0.95,0.0,74,93,6.98,SB,2020-04-24 03:10:42
372,Zhigansk,66.77,123.37,31.3,broken clouds,0.0,0.0,98,72,8.34,RU,2020-04-24 03:14:40
373,Fortuna,40.6,-124.16,55.0,overcast clouds,0.0,0.0,100,90,6.93,US,2020-04-24 03:14:42
374,Malanje,-9.54,16.34,62.55,overcast clouds,0.0,0.0,69,98,3.62,AO,2020-04-24 03:14:43
375,Itoman,26.12,127.67,66.2,broken clouds,0.0,0.0,55,75,16.11,JP,2020-04-24 03:14:43
376,Sisimiut,66.94,-53.67,34.0,clear sky,0.0,0.0,89,6,2.98,GL,2020-04-24 03:14:45
377,Bengkulu,-3.8,102.27,87.22,overcast clouds,0.0,0.0,62,98,1.28,ID,2020-04-24 03:11:21
378,Clyde River,70.47,-68.59,1.4,overcast clouds,0.0,0.0,84,90,5.82,CA,2020-04-24 03:14:45
379,Llanelli,51.68,-4.16,57.0,clear sky,0.0,0.0,87,3,4.7,GB,2020-04-24 03:14:45
380,Muhororo,0.94,30.76,61.36,scattered clouds,0.0,0.0,67,45,2.28,UG,2020-04-24 03:14:46
381,Boa Vista,2.82,-60.67,84.2,light rain,0.16,0.0,62,94,6.93,BR,2020-04-24 03:14:47
382,Mehamn,71.04,27.85,27.5,light snow,0.0,0.6,95,100,27.42,NO,2020-04-24 03:10:13
383,Kondinskoye,59.65,67.41,37.26,overcast clouds,0.0,0.0,76,98,9.55,RU,2020-04-24 03:14:47
384,Yiyang,28.59,112.33,68.95,overcast clouds,0.0,0.0,51,97,2.26,CN,2020-04-24 03:14:48
385,Talara,-4.58,-81.27,72.5,clear sky,0.0,0.0,75,6,10.22,PE,2020-04-24 03:14:48
386,Banda Aceh,5.56,95.32,83.97,overcast clouds,0.0,0.0,70,93,3.11,ID,2020-04-24 03:14:48
387,Millerovo,48.92,40.4,40.71,broken clouds,0.0,0.0,65,51,8.34,RU,2020-04-24 03:14:48
388,Geri,35.1,33.42,62.6,scattered clouds,0.0,0.0,82,40,8.05,CY,2020-04-24 03:14:49
389,Tabuk,17.42,121.44,87.73,scattered clouds,0.0,0.0,59,43,2.66,PH,2020-04-24 03:14:49
390,Kadhan,24.48,68.99,86.52,scattered clouds,0.0,0.0,39,47,17.72,PK,2020-04-24 03:14:50
391,East Stroudsburg,41.0,-75.18,46.99,overcast clouds,0.0,0.0,56,90,3.36,US,2020-04-24 03:13:38
392,Key Largo,25.09,-80.45,82.0,light rain,0.2,0.0,85,96,10.0,US,2020-04-24 03:14:50
393,Danshui,22.8,114.47,71.01,broken clouds,0.0,0.0,100,84,5.01,CN,2020-04-24 03:14:51
394,Kavaratti,10.57,72.64,85.84,broken clouds,0.0,0.0,65,83,9.1,IN,2020-04-24 03:13:08
395,Praia Da Vitoria,38.73,-27.07,60.8,broken clouds,0.0,0.0,87,75,6.85,PT,2020-04-24 03:14:53
396,Sohag,26.56,31.69,71.6,clear sky,0.0,0.0,24,0,9.17,EG,2020-04-24 03:14:53
397,Brae,60.4,-1.35,41.0,broken clouds,0.0,0.0,93,51,4.7,GB,2020-04-24 03:14:55
398,Mayor Pablo Lagerenza,-19.93,-60.77,75.56,clear sky,0.0,0.0,38,0,7.67,PY,2020-04-24 03:14:56
399,Provideniya,64.38,-173.3,30.2,clear sky,0.0,0.0,68,0,15.66,RU,2020-04-24 03:10:19
400,Emerald,-23.53,148.17,84.99,scattered clouds,0.0,0.0,45,40,8.05,AU,2020-04-24 03:14:56
401,Chalmette,29.94,-89.96,75.2,clear sky,0.0,0.0,78,1,6.24,US,2020-04-24 03:14:57
402,Laguna,38.42,-121.42,84.2,clear sky,0.0,0.0,20,1,10.29,US,2020-04-24 03:10:07
403,Faya,18.39,42.45,60.8,clear sky,0.0,0.0,54,7,1.32,SA,2020-04-24 03:14:57
404,Copiapo,-27.37,-70.33,59.0,broken clouds,0.0,0.0,77,60,4.7,CL,2020-04-24 03:14:57
405,Casablanca,33.59,-7.62,64.0,overcast clouds,0.0,0.0,93,97,5.82,MA,2020-04-24 03:14:58
406,Tiznit,29.58,-9.5,57.31,scattered clouds,0.0,0.0,71,48,3.62,MA,2020-04-24 03:14:58
407,Ostrovnoy,68.05,39.51,27.55,light snow,0.0,1.29,97,100,22.53,RU,2020-04-24 03:14:58
408,Ocean City,39.28,-74.57,50.0,moderate rain,0.0,0.0,87,90,6.93,US,2020-04-24 03:13:30
409,Meulaboh,4.14,96.13,85.6,overcast clouds,0.0,0.0,66,100,1.81,ID,2020-04-24 03:14:59
410,Dryden,49.78,-92.75,41.0,clear sky,0.0,0.0,65,1,8.05,CA,2020-04-24 03:14:59
411,Alta Floresta,-9.88,-56.09,71.4,broken clouds,0.0,0.0,87,66,1.86,BR,2020-04-24 03:14:59
412,Half Moon Bay,37.46,-122.43,69.8,clear sky,0.0,0.0,76,1,17.22,US,2020-04-24 03:14:59
413,Wakkanai,45.41,141.67,44.6,few clouds,0.0,0.0,52,20,23.04,JP,2020-04-24 03:15:00
414,Samarai,-10.62,150.67,83.53,light rain,0.28,0.0,70,76,8.25,PG,2020-04-24 03:15:00
415,Olean,42.08,-78.43,46.0,clear sky,0.0,0.0,93,1,3.36,US,2020-04-24 03:15:01
416,Prince George,53.92,-122.75,52.0,broken clouds,0.0,0.0,40,75,5.82,CA,2020-04-24 03:14:00
417,Rila,42.13,23.13,37.0,clear sky,0.0,0.0,79,0,1.99,BG,2020-04-24 03:15:01
418,Tigil,57.8,158.67,36.14,overcast clouds,0.0,0.0,83,99,10.98,RU,2020-04-24 03:15:02
419,La Ronge,55.1,-105.28,39.2,broken clouds,0.0,0.0,69,75,8.05,CA,2020-04-24 03:15:02
420,Cururupu,-1.83,-44.87,76.12,light rain,2.09,0.0,91,99,3.38,BR,2020-04-24 03:15:02
421,Dodge City,37.75,-100.02,62.6,clear sky,0.0,0.0,51,1,4.7,US,2020-04-24 03:15:02
422,Kamyzyak,46.11,48.07,37.4,clear sky,0.0,0.0,74,0,8.95,RU,2020-04-24 03:15:03
423,Xai-Xai,-25.05,33.64,69.82,few clouds,0.0,0.0,83,23,3.06,MZ,2020-04-24 03:15:03
424,Luganville,-15.53,167.17,82.4,overcast clouds,0.0,0.0,74,90,9.75,VU,2020-04-24 03:15:04
425,Boyuibe,-20.42,-63.28,70.77,clear sky,0.0,0.0,56,0,7.29,BO,2020-04-24 03:11:06
426,Daru,-9.08,143.21,83.91,light rain,0.73,0.0,74,4,12.64,PG,2020-04-24 03:15:05
427,Kapuskasing,49.42,-82.43,30.2,clear sky,0.0,0.0,30,5,5.82,CA,2020-04-24 03:15:05
428,Nichinan,31.6,131.37,62.6,few clouds,0.0,0.0,44,20,19.46,JP,2020-04-24 03:15:05
429,Sol-Iletsk,51.16,54.99,36.86,clear sky,0.0,0.0,73,0,15.17,RU,2020-04-24 03:15:07
430,Bannur,12.33,76.86,83.93,overcast clouds,0.0,0.0,45,86,3.47,IN,2020-04-24 03:15:07
431,Alice Springs,-23.7,133.88,89.6,clear sky,0.0,0.0,21,1,16.11,AU,2020-04-24 03:15:08
432,Namibe,-15.2,12.15,74.59,clear sky,0.0,0.0,68,0,7.14,AO,2020-04-24 03:15:08
433,Santa Ines,-3.67,-45.38,74.16,light rain,2.01,0.0,94,100,1.16,BR,2020-04-24 03:15:09
434,Aljezur,37.32,-8.8,62.01,broken clouds,0.0,0.0,76,78,7.56,PT,2020-04-24 03:15:10
435,Zhanakorgan,43.91,67.25,73.11,overcast clouds,0.0,0.0,36,100,4.97,KZ,2020-04-24 03:15:10
436,Muli,2.92,73.57,78.44,moderate rain,10.86,0.0,86,100,1.95,MV,2020-04-24 03:15:11
437,Saquarema,-22.92,-42.51,75.2,scattered clouds,0.0,0.0,78,40,4.7,BR,2020-04-24 03:15:11
438,Fez,34.04,-5.0,57.2,clear sky,0.0,0.0,76,10,4.7,MA,2020-04-24 03:15:12
439,Horta,38.53,-28.63,59.65,overcast clouds,0.0,0.0,76,95,5.73,PT,2020-04-24 03:15:12
440,Beloha,-25.17,45.05,68.95,clear sky,0.0,0.0,79,0,11.32,MG,2020-04-24 03:15:13
441,Warwick,41.7,-71.42,45.0,overcast clouds,0.0,0.0,48,90,4.7,US,2020-04-24 03:12:15
442,Avera,33.19,-82.53,62.6,overcast clouds,0.0,0.0,91,90,3.36,US,2020-04-24 03:10:30
443,Punta Alta,-38.88,-62.07,66.13,light rain,2.41,0.0,86,100,12.86,AR,2020-04-24 03:15:14
444,Maceio,-9.67,-35.74,79.5,light rain,0.52,0.0,82,100,6.42,BR,2020-04-24 03:12:07
445,Rivera,-30.91,-55.55,63.88,clear sky,0.0,0.0,64,6,7.11,UY,2020-04-24 03:15:15
446,Dongsheng,39.82,109.98,53.44,clear sky,0.0,0.0,16,0,24.29,CN,2020-04-24 03:11:38
447,Makakilo City,21.35,-158.09,82.4,clear sky,0.0,0.0,54,1,12.75,US,2020-04-24 03:15:11
448,San,13.3,-4.9,84.02,overcast clouds,0.0,0.0,50,97,20.24,ML,2020-04-24 03:15:02
449,Papar,5.73,115.93,89.6,few clouds,0.0,0.0,70,20,5.82,MY,2020-04-24 03:15:17
450,Missoula,47.02,-113.8,51.8,scattered clouds,0.0,0.0,57,40,11.41,US,2020-04-24 03:15:17
451,Paita,-5.09,-81.11,72.07,clear sky,0.0,0.0,73,0,10.49,PE,2020-04-24 03:15:19
452,Glazov,58.14,52.66,27.18,light snow,0.0,0.11,90,90,6.73,RU,2020-04-24 03:15:19
453,Kloulklubed,7.04,134.26,86.0,broken clouds,0.0,0.0,70,75,10.29,PW,2020-04-24 03:15:19
454,Egvekinot,66.32,-179.17,25.25,clear sky,0.0,0.0,93,9,5.5,RU,2020-04-24 03:15:21
455,Nome,64.5,-165.41,35.6,clear sky,0.0,0.0,64,1,13.87,US,2020-04-24 03:15:22
456,Betsiamites,48.94,-68.65,30.2,clear sky,0.0,0.0,62,1,13.87,CA,2020-04-24 03:15:22
457,Storsteinnes,69.24,19.23,30.2,broken clouds,0.0,0.0,68,65,17.22,NO,2020-04-24 03:15:22
458,Mahebourg,-20.41,57.7,75.99,light rain,0.32,0.0,89,46,8.99,MU,2020-04-24 03:15:23
459,San Giuseppe Jato,37.97,13.19,57.99,clear sky,0.0,0.0,96,6,5.01,IT,2020-04-24 03:15:23
460,Camacha,33.08,-16.33,60.8,scattered clouds,0.0,0.0,67,40,13.87,PT,2020-04-24 03:15:24
461,Freeport,40.66,-73.58,46.4,light rain,0.0,0.0,65,90,4.7,US,2020-04-24 03:13:08
462,Cabra,37.47,-4.44,55.99,overcast clouds,0.0,0.0,78,100,3.33,ES,2020-04-24 03:15:25
463,Cooma,-36.23,149.13,68.0,clear sky,0.0,0.0,32,0,13.87,AU,2020-04-24 03:15:25
464,Oussouye,12.48,-16.55,69.8,overcast clouds,0.0,0.0,88,100,11.41,SN,2020-04-24 03:15:25
465,Aykhal,66.0,111.5,39.2,overcast clouds,0.0,0.0,51,100,4.47,RU,2020-04-24 03:15:25
466,Bonthe,7.53,-12.51,76.64,moderate rain,4.6,0.0,81,100,10.27,SL,2020-04-24 03:15:25
467,Rawson,-43.3,-65.1,61.18,light rain,0.15,0.0,70,97,11.79,AR,2020-04-24 03:15:26
468,Pustoshka,56.34,29.37,41.11,overcast clouds,0.0,0.0,73,100,2.3,RU,2020-04-24 03:15:26
469,Chapais,49.78,-74.85,17.6,clear sky,0.0,0.0,44,1,4.7,CA,2020-04-24 03:15:26
470,Sangar,63.92,127.47,36.03,overcast clouds,0.0,0.0,83,99,3.49,RU,2020-04-24 03:15:26
471,Windsor,42.3,-83.02,41.0,broken clouds,0.0,0.0,93,75,10.29,CA,2020-04-24 03:15:27
472,Comodoro Rivadavia,-45.87,-67.5,57.2,scattered clouds,0.0,0.0,62,31,12.75,AR,2020-04-24 03:15:02
473,Quatre Cocos,-20.21,57.76,75.99,light rain,0.22,0.0,89,27,8.99,MU,2020-04-24 03:15:27
474,Ninghai,29.29,121.42,72.0,clear sky,0.0,0.0,37,10,3.0,CN,2020-04-24 03:15:28
475,Eenhana,-17.47,16.33,59.07,clear sky,0.0,0.0,41,0,5.3,NA,2020-04-24 03:15:28
476,San Cristobal,7.77,-72.22,84.2,scattered clouds,0.0,0.0,70,40,2.24,VE,2020-04-24 03:15:28
477,Tamandare,-8.76,-35.1,80.37,light rain,0.13,0.0,80,40,5.59,BR,2020-04-24 03:15:28
478,Staryy Nadym,65.61,72.68,29.39,overcast clouds,0.0,0.0,88,100,14.41,RU,2020-04-24 03:15:29
479,Sorong,-0.88,131.25,84.52,light rain,1.36,0.0,81,39,0.74,ID,2020-04-24 03:15:29
480,Dzaoudzi,-12.79,45.27,80.6,clear sky,0.0,0.0,88,1,6.93,YT,2020-04-24 03:15:30
481,Houma,29.6,-90.72,73.0,clear sky,0.0,0.0,94,1,5.7,US,2020-04-24 03:13:46
482,Bukama,-9.2,25.85,64.67,few clouds,0.0,0.0,69,24,2.13,CD,2020-04-24 03:15:30
483,Dabou,5.33,-4.38,78.8,few clouds,0.0,0.0,94,20,3.36,CI,2020-04-24 03:15:31
484,Dingle,11.0,122.67,88.21,light rain,0.25,0.0,61,77,15.32,PH,2020-04-24 03:15:31
485,Moron,-34.65,-58.62,73.0,overcast clouds,0.0,0.0,83,100,11.41,AR,2020-04-24 03:15:32
486,Portland,45.52,-122.68,57.99,clear sky,0.0,0.0,58,1,5.82,US,2020-04-24 03:14:48
487,Kaseda,31.42,130.32,57.2,broken clouds,0.0,0.0,44,75,13.87,JP,2020-04-24 03:13:43
488,Pisco,-13.7,-76.22,69.8,clear sky,0.0,0.0,77,0,10.29,PE,2020-04-24 03:15:32
489,Coihaique,-45.58,-72.07,48.2,light rain,0.44,0.0,87,92,6.93,CL,2020-04-24 03:15:32
490,Okhotsk,59.38,143.3,34.9,light snow,0.0,0.18,87,100,9.71,RU,2020-04-24 03:15:33
491,Mantua,45.17,10.78,46.99,clear sky,0.0,0.0,75,0,2.24,IT,2020-04-24 03:15:33
492,Springdale,36.19,-94.13,60.01,clear sky,0.0,0.0,82,1,3.18,US,2020-04-24 03:15:33
493,At-Bashi,41.17,75.81,52.3,few clouds,0.0,0.0,21,20,9.71,KG,2020-04-24 03:15:34
494,Olinda,-8.01,-34.86,80.6,broken clouds,0.0,0.0,88,75,3.36,BR,2020-04-24 03:12:35
495,Clermont,49.5,2.42,42.8,few clouds,0.0,0.0,87,24,5.82,FR,2020-04-24 03:15:34
496,Gazli,40.13,63.45,72.03,overcast clouds,0.0,0.0,33,100,10.63,UZ,2020-04-24 03:15:34
497,Roma,43.21,-75.46,44.6,overcast clouds,0.0,0.0,52,90,4.7,US,2020-04-24 03:11:51
498,Garowe,8.41,48.48,78.53,light rain,0.81,0.0,65,5,10.58,SO,2020-04-24 03:15:35
499,Los Llanos De Aridane,28.66,-17.92,62.6,scattered clouds,0.0,0.0,72,40,9.17,ES,2020-04-24 03:11:39
500,Skelleftea,64.75,20.95,37.4,broken clouds,0.0,0.0,74,66,4.7,SE,2020-04-24 03:15:36
501,Mogzon,51.74,111.96,45.28,clear sky,0.0,0.0,31,0,11.77,RU,2020-04-24 03:15:36
502,Chakrata,30.7,77.85,63.0,clear sky,0.0,0.0,22,0,1.72,IN,2020-04-24 03:15:37
503,Sao Mateus Do Sul,-25.87,-50.38,52.57,clear sky,0.0,0.0,76,2,2.19,BR,2020-04-24 03:15:37
504,Beringovskiy,63.05,179.32,21.11,clear sky,0.0,0.0,94,6,10.22,RU,2020-04-24 03:15:38
505,Saint Cloud,45.56,-94.16,52.0,few clouds,0.0,0.0,57,20,4.7,US,2020-04-24 03:14:01
506,Zalari,53.56,102.51,63.16,broken clouds,0.0,0.0,31,76,1.63,RU,2020-04-24 03:15:38
507,Sao Jose Da Coroa Grande,-8.9,-35.15,80.22,light rain,0.13,0.0,80,57,5.68,BR,2020-04-24 03:15:39
508,Mundo Nuevo,18.7,-95.5,84.2,clear sky,0.0,0.0,58,9,4.0,MX,2020-04-24 03:15:39
509,Dijkot,31.22,72.98,88.12,clear sky,0.0,0.0,18,9,5.61,PK,2020-04-24 03:15:40
510,Broken Hill,-31.95,141.43,69.8,clear sky,0.0,0.0,60,0,8.05,AU,2020-04-24 03:15:40
511,Sanmenxia,34.77,111.18,65.64,clear sky,0.0,0.0,19,1,12.21,CN,2020-04-24 03:15:40
512,Viedma,-40.81,-63.0,62.1,light rain,0.14,0.0,89,98,10.25,AR,2020-04-24 03:15:40
513,Jodar,37.84,-3.35,62.01,overcast clouds,0.0,0.0,57,99,4.25,ES,2020-04-24 03:15:41
514,Praia,14.92,-23.51,71.6,broken clouds,0.0,0.0,64,75,16.11,CV,2020-04-24 03:15:41
515,Sur,22.57,59.53,86.23,broken clouds,0.0,0.0,39,58,6.87,OM,2020-04-24 03:15:42
516,Uyskoye,54.38,60.0,34.65,clear sky,0.0,0.0,68,2,14.36,RU,2020-04-24 03:15:42
517,Weyburn,49.67,-103.85,53.08,broken clouds,0.0,0.0,42,84,4.56,CA,2020-04-24 03:15:42
518,Guanambi,-14.22,-42.78,70.83,overcast clouds,0.0,0.0,67,100,7.25,BR,2020-04-24 03:11:00
519,Baillif,16.02,-61.75,77.0,light rain,0.0,0.0,83,3,13.87,GP,2020-04-24 03:15:43
520,Noumea,-22.28,166.46,82.4,few clouds,0.0,0.0,61,20,14.99,NC,2020-04-24 03:15:43
521,Betioky,-23.72,44.38,68.74,few clouds,0.0,0.0,73,20,5.23,MG,2020-04-24 03:15:43
522,Central Point,42.38,-122.92,62.6,clear sky,0.0,0.0,51,1,4.7,US,2020-04-24 03:15:43
523,Kysyl-Syr,63.9,122.76,35.85,overcast clouds,0.0,0.0,81,100,4.18,RU,2020-04-24 03:15:44
524,Rennes,48.17,-1.67,53.01,mist,0.0,0.0,93,90,5.82,FR,2020-04-24 03:15:24
525,Miandrivazo,-19.52,45.47,73.27,broken clouds,0.0,0.0,81,56,2.39,MG,2020-04-24 03:15:44
526,Yarada,17.65,83.27,86.0,mist,0.0,0.0,74,20,9.17,IN,2020-04-24 03:15:44
527,Arawa,-6.21,155.54,83.98,light rain,2.0,0.0,74,46,3.33,PG,2020-04-24 03:15:45
528,Cacheu,12.27,-16.17,69.8,broken clouds,0.0,0.0,88,79,4.7,GW,2020-04-24 03:15:45
529,Beesel,51.27,6.04,48.99,overcast clouds,0.0,0.0,79,98,4.14,NL,2020-04-24 03:15:45
530,Goundam,16.41,-3.67,85.26,scattered clouds,0.0,0.0,14,47,4.03,ML,2020-04-24 03:15:45
531,Ziro,27.63,93.83,49.96,light rain,1.58,0.0,56,100,2.1,IN,2020-04-24 03:15:46
532,Westport,41.14,-73.36,46.0,broken clouds,0.0,0.0,65,75,5.82,US,2020-04-24 03:11:02
533,Kabalo,-6.05,26.92,67.64,overcast clouds,0.0,0.0,82,93,3.22,CD,2020-04-24 03:15:48
534,Humaita,-7.51,-63.02,74.66,moderate rain,4.88,0.0,95,96,1.16,BR,2020-04-24 03:15:48
535,Adrar,20.5,-10.07,83.1,broken clouds,0.0,0.0,14,80,10.16,MR,2020-04-24 03:15:48
536,Ketchikan,55.34,-131.65,48.2,overcast clouds,0.0,0.0,76,90,18.34,US,2020-04-24 03:15:00
537,Hualmay,-11.1,-77.61,69.12,clear sky,0.0,0.0,75,0,5.3,PE,2020-04-24 03:15:49
538,Lima,-12.04,-77.03,69.8,clear sky,0.0,0.0,77,0,8.05,PE,2020-04-24 03:11:02
539,Axim,4.87,-2.24,80.04,light rain,0.15,0.0,85,58,5.03,GH,2020-04-24 03:15:01
540,Oktyabrsk,49.47,57.42,37.98,clear sky,0.0,0.0,65,1,12.77,KZ,2020-04-24 03:15:50
541,Port Hawkesbury,45.62,-61.35,37.0,overcast clouds,0.0,0.0,59,90,10.29,CA,2020-04-24 03:15:50
542,Leshukonskoye,64.9,45.76,20.82,overcast clouds,0.0,0.0,96,100,8.34,RU,2020-04-24 03:15:50
543,Belaya Gora,68.53,146.42,27.79,clear sky,0.0,0.0,94,0,1.95,RU,2020-04-24 03:15:50
544,Payo,-3.75,103.64,87.87,overcast clouds,0.0,0.0,59,100,1.7,ID,2020-04-24 03:15:51
